building_address,latitude,longitude
"1500 Massachusetts Ave NW, Washington, DC",38.90646479999999,-77.0355333
"4411 Connecticut Ave NW, Washington, DC",38.9462151,-77.06404659999998
"3003 Van Ness St NW, Washington, DC",38.9437227,-77.06123339999998
"100 K Street Northeast, Washington, DC",38.90286469999999,-77.0053473
"455 I St NW, Washington, DC",38.901501200000006,-77.0180106
"4850 Connecticut Ave NW, Washington, DC",38.95285620000001,-77.06890329999999
"2000 N St NW, Washington, DC",38.9070561,-77.04540000000001
"3700 Massachusetts Ave NW, Washington, DC",38.927775700000005,-77.07380479999998
"2601 Woodley Pl NW, Washington, DC",38.9238808,-77.05019490000001
"2501 Porter St NW, Washington, DC",38.9354574,-77.0539728
"2727 29th St NW, Washington, DC",38.92426469999999,-77.05687619999998
"1616 18th St NW, Washington, DC",38.91220029999999,-77.04194150000001
"425 Massachusetts Ave NW, Washington, DC",38.9008429,-77.0170211
"2400 M St NW, Washington, DC",38.905133500000005,-77.05217429999998
"1210 Massachusetts Ave NW, Washington, DC",38.904179,-77.028713
"2121 First Street SW, Washington, DC",38.8637898,-77.01219019999998
"1250 Half Street Southeast, Washington, DC",38.8755411,-77.00727380000001
"201 I St NE, Washington, DC",38.9009036,-77.0032763
"1331 Maryland Avenue Southwest, Washington, DC",38.884096500000005,-77.0310022
"555 E Street Southwest, Washington, DC",38.88370889999999,-77.01954649999998
"22 M Street Northeast, Washington, DC",38.905807200000005,-77.0080712
"1270 4th Street Northeast, Washington, DC",38.9088436,-76.99967679999999
"1315 W St NW, Washington, DC",38.919433700000006,-77.03098879999999
"950 Maine Ave SW, Washington, DC",38.880499,-77.0254582
"2512 Q St NW, Washington, DC",38.9102773,-77.05332779999998
"222 M Street Southwest, Washington, DC",38.87628,-77.0147471
"1441 U Street Northwest, Washington, DC",38.91721210000001,-77.0335448
"1825 7th St NW, Washington, DC",38.9149324,-77.02160359999998
"625 H St NE, Washington, DC",38.899752,-76.997337
"1011 1st St SE, Washington, DC",38.8781716,-77.006202
"1550 7th St NW, Washington, DC",38.910506299999994,-77.02222119999998
"61 Pierce Street, Washington, DC",38.9044341,-77.0073401
"1212 4th St SE, Washington, DC",38.8754425,-77.0000458
"301 Tingey St SE, Washington, DC",38.874325899999995,-77.0014099
"1631 S St NW, Washington, DC",38.9142605,-77.03814090000002
"1722 19th St NW, Washington, DC",38.913425,-77.043635
"910 15th St NW, Washington, DC",38.901713,-77.0349427
"2101 16th St NW, Washington, DC",38.918619899999996,-77.03619909999999
"2 I Street Southeast, Washington, DC",38.8797539,-77.0082704
"130 M St NE, Washington, DC",38.9058395,-77.00498990000001
"949 First Street SE, Washington, DC",38.8788507,-77.0060462
"82 I St SE, Washington, DC",38.8796101,-77.00557090000001
"1631 Kalorama Rd NW, Washington, DC",38.921983000000004,-77.03824300000001
"1400 20th St NW, Washington, DC",38.90904099999999,-77.0451291
"1001 4th St SW, Washington, DC",38.878465399999996,-77.0178531
"1011 4th St NW, Washington, DC",38.903440100000005,-77.01598609999998
"3032 Rodman Street Northwest, Washington, DC",38.9381593,-77.0616588
"1901 C Street SE, Washington, DC",38.885348,-76.97728520000001
"3801 Georgia Ave NW, Washington, DC",38.937893200000005,-77.02428619999998
"315 H Street Northeast, Washington, DC",38.899916,-77.001414
"515 9th Street NW, Washington, DC",38.89678920000001,-77.0237976
"1234 Massachusetts Ave NW, Washington, DC",38.9041649,-77.02936940000001
"965 Florida Avenue Northwest, Washington, DC",38.91955979999999,-77.02480349999998
"1263 First Street Southeast, Washington, DC",38.87507,-77.006241
"71 Potomac Avenue Southeast, Washington, DC",38.8710407,-77.00767059999998
"1350 R St NW, Washington, DC",38.912407,-77.03164799999998
"901 W Street Northwest, Washington, DC",38.9192987,-77.02522640000001
"880 P St NW, Washington, DC",38.90940620000001,-77.02345859999998
"1401 S St NW, Washington, DC",38.9142544,-77.0322709
"400 8th St NW, Washington, DC",38.894968299999995,-77.0232515
"565 Pennsylvania Ave NW, Washington, DC",38.893294299999994,-77.01965200000001
"3401 Idaho Ave NW, Washington, DC",38.935191700000004,-77.07351690000002
"770 Maine Ave SW, Washington, DC",38.8793468,-77.0241011
"425 L St NW, Washington, DC",38.9040838,-77.0173339
"1717 R St NW, Washington, DC",38.91292139999999,-77.03918290000001
"3900 16th St NW, Washington, DC",38.939341600000006,-77.03715129999998
"1830 R Street Northwest, Washington, DC",38.912446,-77.04321800000001
"1610 16th St NW, Washington, DC",38.91148079999999,-77.0369714
"2700 Woodley Rd NW, Washington, DC",38.9251494,-77.0557718
"1150 4th St SW, Washington, DC",38.877445,-77.01627859999998
"510 21st St NW, Washington, DC",38.896459899999996,-77.04699389999998
"901 H Street Northeast, Washington, DC",38.899879999999996,-76.99378399999998
"1221 Half Street Southeast, Washington, DC",38.8755222,-77.0075121
"6939 Georgia Ave NW, Washington, DC",38.9749544,-77.0265354
"733 15th St NW, Washington, DC",38.899862,-77.0330295
"1425 P St NW, Washington, DC",38.9098684,-77.03286370000002
"1445 P St NW, Washington, DC",38.9098924,-77.0335528
"5521 Colorado Ave NW, Washington, DC",38.9569006,-77.03211340000001
"1315 Clifton Street Northwest, Washington, DC",38.9227908,-77.03069640000001
"2101 Wisconsin Avenue Northwest, Washington, DC",38.91771,-77.06833
"6101 16th St NW, Washington, DC",38.964818,-77.03560449999998
"2228 Martin Luther King Junior Avenue Southeast, Washington, DC",38.863372,-76.990414
"1357 R Street, Washington, DC",38.9127472,-77.0312844
"2144 California St NW, Washington, DC",38.916045600000004,-77.0483059
"35 E St NW, Washington, DC",38.8963903,-77.01062689999998
"200 Rhode Island Ave NE, Washington, DC",38.9191422,-77.00321009999998
"2112 New Hampshire Ave NW, Washington, DC",38.9190021,-77.0353521
"4500 Connecticut Ave NW, Washington, DC",38.9480819,-77.06638509999998
"2416 K Street Northwest, Washington, DC",38.9021445,-77.05207929999999
"806 Channing Pl NE, Washington, DC",38.9232032,-76.9943223
"1401 New York Ave NE, Washington, DC",38.9152436,-76.98401209999999
"3750 Jamison Street NE, Washington, DC",38.924826200000005,-76.95185099999998
"1921 Kalorama Rd NW, Washington, DC",38.919484000000004,-77.0460571
"6918 Willow St NW, Washington, DC",38.9737864,-77.0147489
"3210 Wisconsin Ave NW, Washington, DC",38.9323836,-77.07304040000002
"1930 Columbia Rd NW, Washington, DC",38.918159,-77.0449776
"1101 New Hampshire Ave NW, Washington, DC",38.9039873,-77.048126
"825 New Hampshire Ave NW, Washington, DC",38.90022800000001,-77.05181400000002
"2730 Wisconsin Ave NW, Washington, DC",38.9259847,-77.07340390000002
"300 L St NE, Washington, DC",38.9039762,-77.0017015
"1700 Harvard St NW, Washington, DC",38.926973600000004,-77.04043279999998
"1415 Rhode Island Ave NW, Washington, DC",38.9087289,-77.0326434
"1401 N St NW, Washington, DC",38.90732149999999,-77.03223759999999
"5100 Connecticut Avenue Northwest, Washington, DC",38.956115999999994,-77.070792
"3206 Wisconsin Ave NW, Washington, DC",38.9320526,-77.07295040000001
"4900-20 Fort Totten Dr NE, Washington, DC",38.9506266,-77.007573
"3725 Macomb St NW, Washington, DC",38.933738,-77.0736699
"2620 16th Street Northwest, Washington, DC",38.9238151,-77.03683869999998
"79 Potomac Ave SE, Washington, DC",38.871234,-77.0072947
"1925 14th Street Northwest, Washington, DC",38.91658220000001,-77.0317527
"1919 3rd Street Northwest, Washington, DC",38.9165323,-77.0155587
"2901 Connecticut Ave NW, Washington, DC",38.928307000000004,-77.05388289999998
"211 Elm Street Northwest, Washington, DC",38.9178955,-77.01483890000002
"2800 Quebec St NW, Washington, DC",38.9362951,-77.05569840000001
"4849 Connecticut Ave NW, Washington, DC",38.952981,-77.0682288
"1600 Maryland Ave NE, Washington, DC",38.901587400000004,-76.98073289999998
"2701 Calvert St NW, Washington, DC",38.9235305,-77.05637759999998
"4510 2nd St NE, Washington, DC",38.9443208,-77.0039287
"1777 Columbia Road Northwest, Washington, DC",38.9232962,-77.0420078
"33 N St NE, Washington, DC",38.9070287,-77.00777550000002
"1100 1st St SE, Washington, DC",38.8772468,-77.00561590000001
"3146 16th St NW, Washington, DC",38.9299814,-77.03704379999999
"2601 Virginia Ave NW, Washington, DC",38.900282000000004,-77.05533199999998
"1225 22nd St NW, Washington, DC",38.906220700000006,-77.0488022
"1475 Euclid St NW, Washington, DC",38.9236153,-77.03499219999998
"1812 23rd St SE, Washington, DC",38.8674213,-76.9731292
"1702 Summit Pl NW, Washington, DC",38.9264691,-77.0403898
"3213 Wisconsin Avenue, Washington, DC",38.933066499999995,-77.07208960000001
"100 Fort Drive Northeast, Washington, DC",38.941152,-77.005166
"2445 15th Street Northwest, Washington, DC",38.9228231,-77.03508219999998
"2100 Maryland Ave NE, Washington, DC",38.9044956,-76.9735377
"2101 New Hampshire Ave NW, Washington, DC",38.91837960000001,-77.0348123
"2 Forrester St SE, Washington, DC",38.8252896,-77.0062233
"4530 Connecticut Ave NW, Washington, DC",38.9490248,-77.0669247
"1701 Massachusetts Ave, Washington, DC",38.908430700000004,-77.03877259999999
"2013 New Hampshire Ave NW, Washington, DC",38.9174876,-77.035442
"4550 Connecticut Ave. NW, Washington, DC",38.9495162,-77.0670146
"2702 Wisconsin Ave NW, Washington, DC",38.92499229999999,-77.0736699
"2701 Connecticut Ave NW, Washington, DC",38.9257251,-77.0524448
"2800 Woodley Rd NW, Washington, DC",38.9256994,-77.0570638
"1301 Vermont Ave NW, Washington, DC",38.9075184,-77.0306356
"3800 14th St NW, Washington, DC",38.9382124,-77.0335218
"1707 Columbia Rd NW, Washington, DC",38.9251044,-77.0396702
"1673 Columbia Rd NW, Washington, DC",38.92534439999999,-77.0389505
"2200 19th Street Northwest, Washington, DC",38.919212200000004,-77.0450676
"1414 17th St NW, Washington, DC",38.9092055,-77.0388605
"2620 13th St NW, Washington, DC",38.9242518,-77.02995419999998
"2633-2645 Naylor Road Southeast, Washington, DC",38.8624367,-76.97026939999998
"4115 Wisconsin Avenue Northwest, Washington, DC",38.942910299999994,-77.07647800000001
"601 24th Street Northwest, Washington, DC",38.8980763,-77.05115970000001
"816 E St NE, Washington, DC",38.8963692,-76.9939677
"2426 19th Street Northwest, Washington, DC",38.9215904,-77.04623699999998
"1221 Van Street Southeast, Washington, DC",38.87500670000001,-77.00844860000002
"880 New Jersey Ave SE, Washington, DC",38.8796739,-77.0043561
"800 New Jersey Avenue Southeast, Washington, DC",38.880241,-77.005152
"2 M Street NE, Washington, DC",38.90605190000001,-77.0087203
"2011 15th St NW, Washington, DC",38.9178974,-77.0340926
"1240 4th St, Washington, DC",38.9070755,-77.0163736
"2505 13th St NW, Washington, DC",38.9226463,-77.0292345
"4201 Massachusetts Ave NW, Washington, DC",38.935681,-77.08185519999998
"1717 E Capitol St SE, Washington, DC",38.8894333,-76.9798776
"2101 Champlain St NW, Washington, DC",38.9185203,-77.039985
"1600 Pennsylvania Ave SE, Washington, DC",38.8791765,-76.98181269999998
"2401 Pennsylvania Ave NW, Washington, DC",38.9032952,-77.05174269999998
"2201 N St NW, Washington, DC",38.9074997,-77.04938539999998
"460 L St NW, Washington, DC",38.90359229999999,-77.01794740000001
"701 2nd St NE, Washington, DC",38.8991263,-77.00330500000001
"215 C St SE, Washington, DC",38.8857981,-77.0027813
"7035 Blair Rd NW, Washington, DC",38.97568589999999,-77.0187981
"1750 P St NW, Washington, DC",38.9094281,-77.0408396
"2651 16th Street Northwest, Washington, DC",38.924586600000005,-77.0359593
"1840 Columbia Road Northwest, Washington, DC",38.9216296,-77.04322640000001
"2900 Adams Mill Road Northwest, Washington, DC",38.926903499999995,-77.0435383
"501 12th Street Northeast, Washington, DC",38.8963632,-76.9898901
"750 3rd Street Nw, Washington, DC",38.899037899999996,-77.0155587
"3828 Georgia Ave NW, Washington, DC",38.9381939,-77.02480539999998
"151 Q St NE, Washington, DC",38.91080609999999,-77.0037105
"1921 8th St NW, Washington, DC",38.916290100000005,-77.0226667
"230 Rhode Island Ave NE, Washington, DC",38.919534000000006,-77.0023314
"3930 Georgia Ave NW, Washington, DC",38.939528700000004,-77.02527590000003
"3945 Connecticut Ave NW, Washington, DC",38.940523,-77.060923
"1620 Fuller St NW, Washington, DC",38.9245204,-77.0373312
"5661 3rd St NE, Washington, DC",38.95913529999999,-77.0027071
"850 Quincy St NW, Washington, DC",38.937465100000004,-77.02492209999998
"1483 Newton St NW, Washington, DC",38.932914000000004,-77.0347448
"2700 Q St NW, Washington, DC",38.91023380000001,-77.05586170000001
"1920 14th St NW, Washington, DC",38.91632429999999,-77.03231740000001
"1601 Argonne Pl NW, Washington, DC",38.926678,-77.03868059999998
"2324 41st St NW, Washington, DC",38.9213258,-77.08104420000001
"2828 Connecticut Ave NW, Washington, DC",38.92745479999999,-77.0541527
"1908 Florida Ave NW, Washington, DC",38.9149838,-77.04455709999998
"3040 Idaho Ave NW, Washington, DC",38.9301207,-77.0786162
"3000 Connecticut Ave NW, Washington, DC",38.9298333,-77.0560416
"300 Massachusetts Ave NW, Washington, DC",38.899479799999995,-77.01591859999998
"2420 16th St NW, Washington, DC",38.9215914,-77.0369714
"1803 Biltmore St NW, Washington, DC",38.922478000000005,-77.04330399999998
"1221 24th St NW, Washington, DC",38.90653820000001,-77.051096
"2100 Connecticut Ave NW, Washington, DC",38.917910799999994,-77.0477662
"1301 Massachusetts Ave NW, Washington, DC",38.905194,-77.029842
"3737 Legation St NW, Washington, DC",38.9623427,-77.0726806
"5437 Connecticut Ave NW, Washington, DC",38.9628951,-77.0740296
"1464 Rhode Island Ave NW, Washington, DC",38.9078372,-77.03404420000001
"2401 Calvert St NW, Washington, DC",38.923877600000004,-77.05322170000002
"3501 13th St NW, Washington, DC",38.932695,-77.02941440000001
"1915 Kalorama Rd NW, Washington, DC",38.919604,-77.0456973
"2147 O St NW, Washington, DC",38.9088432,-77.0484858
"2231 Ontario Rd NW, Washington, DC",38.920087,-77.03946780000003
"1630 Park Rd NW, Washington, DC",38.93195479999999,-77.0375402
"2400 Pennsylvania Ave NW, Washington, DC",38.9027965,-77.05181400000002
"925 25th St NW, Washington, DC",38.901480600000006,-77.0529428
"829 Quincy St NW, Washington, DC",38.937865,-77.024855
"250 K St NE, Washington, DC",38.90319960000001,-77.00235500000001
"1616 16th St NW, Washington, DC",38.9117532,-77.0369759
"2255 Wisconsin Ave NW, Washington, DC",38.9204569,-77.0711517
"301 G St SW, Washington, DC",38.881675200000004,-77.0164135
"3055 16th St NW, Washington, DC",38.9280693,-77.0360718
"3401 38th St NW, Washington, DC",38.9359003,-77.073759
"2637 16th St NW, Washington, DC",38.924354799999996,-77.0357179
"3150 16th St NW, Washington, DC",38.930186299999995,-77.03706129999998
"3132 16th St NW, Washington, DC",38.9296847,-77.0368814
"3339 Mount Pleasant St NW, Washington, DC",38.933694300000006,-77.0396707
"1521 Benning Rd NE, Washington, DC",38.8998277,-76.98254820000001
"400 Taylor St NE, Washington, DC",38.9410437,-77.00196439999998
"100 Michigan Ave NE, Washington, DC",38.92886,-77.0057059
"4607 Connecticut Ave NW, Washington, DC",38.9504375,-77.06660490000002
"1375 Fairmont St NW, Washington, DC",38.925051,-77.03178670000001
"4601 Connecticut Ave NW, Washington, DC",38.9499166,-77.06629509999998
"3728 New Hampshire Ave NW, Washington, DC",38.9374415,-77.0238363
"3230 7th St NE, Washington, DC",38.930164700000006,-76.99647639999998
"3620 16th St NW, Washington, DC",38.935871999999996,-77.0369714
"1414 V St NW, Washington, DC",38.917775899999995,-77.033013
"3726 Connecticut Ave NW, Washington, DC",38.9388026,-77.06089859999999
"444 16th St NE, Washington, DC",38.8964249,-76.98244270000001
"1841 Columbia Rd NW, Washington, DC",38.9215171,-77.04400150000001
"1460 Irving St NW, Washington, DC",38.9283489,-77.03499219999998
"1430 W St NW, Washington, DC",38.9189196,-77.0331929
"1600 16th St NW, Washington, DC",38.9113203,-77.0369714
"2359 Ontario Rd NW, Washington, DC",38.921620000000004,-77.03976999999998
"1421 Massachusetts Ave NW, Washington, DC",38.9063951,-77.0332219
"3220 Connecticut Ave NW, Washington, DC",38.9333045,-77.05766059999998
"3701 Massachusetts Ave NW, Washington, DC",38.92945539999999,-77.07340009999999
"2929 Connecticut Ave NW, Washington, DC",38.928859100000004,-77.054378
"1346 Park Rd NW, Washington, DC",38.930413,-77.031318
"1940 Biltmore St NW, Washington, DC",38.922082,-77.04632699999998
"1911 R St NW, Washington, DC",38.91284279999999,-77.0441002
"3435 Holmead Pl NW, Washington, DC",38.93312299999999,-77.030548
"3002 Rodman St NW, Washington, DC",38.937962299999995,-77.06038149999998
"1349 Kenyon St NW, Washington, DC",38.9299597,-77.03148359999999
"3625 16th Street Northwest, Washington, DC",38.937237700000004,-77.03610979999998
"1444 Rock Creek Ford Road Northwest, Washington, DC",38.9636102,-77.035442
"1328 14th St NW, Washington, DC",38.908206400000005,-77.0323945
"1630 R St, Washington, DC",38.912424200000004,-77.03751109999999
"919 F Street Northwest, Washington, DC",38.8976665,-77.02493849999998
"2425 17th St NW, Washington, DC",38.9223906,-77.03872559999998
"1350 Florida Ave NW, Washington, DC",38.919990000000006,-77.031452
"301 M Street Southwest, Washington, DC",38.876777000000004,-77.0156937
"2511 Q St NW, Washington, DC",38.9109644,-77.05379289999998
"5429 Connecticut Ave NW, Washington, DC",38.9625215,-77.07373740000001
"875 N Street Northwest, Washington, DC",38.907378,-77.0237252
"3333 Wisconsin Ave NW, Washington, DC",38.93425269999999,-77.07210730000001
"2715 M Street Northwest, Washington, DC",38.905429,-77.05667120000001
"5182 Eastern Ave NE, Washington, DC",38.9546729,-76.9887201
"1221 Massachusetts Ave NW, Washington, DC",38.90506,-77.02905
"1845 Summit Pl NW, Washington, DC",38.9268225,-77.0428187
"501 H St NE, Washington, DC",38.90000029999999,-76.9991818
"1829 Summit Pl NW, Washington, DC",38.9267167,-77.042234
"2517 K St NW, Washington, DC",38.902892200000004,-77.0541564
"700 Constitution Ave NE, Washington, DC",38.8919308,-76.9945031
"2480 16th St NW, Washington, DC",38.922945399999996,-77.03676180000001
"1250 9th St NW, Washington, DC",38.9069218,-77.0242281
"1301 U St NW, Washington, DC",38.9172618,-77.03058399999998
"450 Massachusetts Ave NW, Washington, DC",38.9003854,-77.01825799999999
"2562 Naylor Rd SE, Washington, DC",38.864813899999994,-76.9692793
"3614 Connecticut Ave NW, Washington, DC",38.93723689999999,-77.0598191
"3825 Georgia Ave NW, Washington, DC",38.93839500000001,-77.02429599999998
"4600 Wisconsin Ave NW, Washington, DC",38.949980700000005,-77.080827
"1350 Corcoran Street Northwest, Washington, DC",38.9120828,-77.0315973
"1629 Columbia Rd NW, Washington, DC",38.9259774,-77.03774200000001
"6817 Georgia Ave NW, Washington, DC",38.97295020000001,-77.0265354
"2745 Ordway Street Northwest, Washington, DC",38.9354004,-77.0568383
"1400 Irving St NW, Washington, DC",38.92856949999999,-77.03357249999998
"2700 16th Street Northwest, Washington, DC",38.9249987,-77.03676899999998
"4545 Connecticut Ave NW, Washington, DC",38.949269799999996,-77.0657042
"1414 Upshur Street Northwest, Washington, DC",38.94148320000001,-77.03337290000002
"811 Quincy Street Northwest, Washington, DC",38.9378263,-77.0237251
"360 H St NE, Washington, DC",38.9004183,-77.0009652
"1371 Peabody St NW, Washington, DC",38.9633865,-77.03274309999998
"5210 3rd St NE, Washington, DC",38.9528614,-77.0019715
"1331 4th St SE, Washington, DC",38.8743105,-77.00093659999999
"4212 E Capitol St NE, Washington, DC",38.89080209999999,-76.9416202
"2323 Sherman Ave NW, Washington, DC",38.9213374,-77.02473599999998
"1515 Ogden St NW, Washington, DC",38.93612050000001,-77.03490219999998
"2724 Porter Street Northwest, Washington, DC",38.9356501,-77.05640140000001
"465 M Street Southwest, Washington, DC",38.87665429999999,-77.0195968
"1815 17th St NW, Washington, DC",38.91467189999999,-77.0382308
"1375 Kenyon St NW, Washington, DC",38.929926200000004,-77.0317907
"1000 1st Street Southeast, Washington, DC",38.877943200000004,-77.0055402
"3850 Tunlaw Rd NW, Washington, DC",38.9250446,-77.07699740000001
"1326 Florida Avenue Northeast, Washington, DC",38.901706,-76.98710009999998
"1712 17th St NW, Washington, DC",38.9130892,-77.0388069
"2070 Belmont Rd NW, Washington, DC",38.9193901,-77.0485019
"2000 Connecticut Ave NW, Washington, DC",38.9168854,-77.047067
"1230 13th St NW, Washington, DC",38.906598200000005,-77.02995419999998
"2110 19th St NW, Washington, DC",38.9180383,-77.0446178
"3300 16th St NW, Washington, DC",38.9323179,-77.0368031
"1112 M St NW, Washington, DC",38.905474600000005,-77.02779989999998
"2745 29th St NW, Washington, DC",38.925120299999996,-77.0569411
"1515 O St NW, Washington, DC",38.9088505,-77.03499219999998
"1355 17th St NW, Washington, DC",38.9085075,-77.0380059
"1743 P St NW, Washington, DC",38.9099494,-77.0404798
"1255 New Hampshire Ave NW, Washington, DC",38.906474700000004,-77.04593969999998
"1919 14th St NW, Washington, DC",38.9158806,-77.0317803
"1825 & 1833 New Hampshire Ave NW, Washington, DC",38.91525,-77.03779999999998
"1640 16th St NW, Washington, DC",38.9123645,-77.0370281
"1325 15th St NW, Washington, DC",38.908595,-77.03433100000001
"2420 14th Street Nw, Washington, DC",38.921139600000004,-77.03210729999998
"2020 F St NW, Washington, DC",38.8969821,-77.04578719999998
"4501 Connecticut Ave NW, Washington, DC",38.948592299999994,-77.06521579999998
"3903 Davis Pl NW, Washington, DC",38.923841499999995,-77.07771679999998
"1160 1st St NE, Washington, DC",38.9051134,-77.00608129999998
"770 5th St NW, Washington, DC",38.8988895,-77.01918460000002
"55 M St NE, Washington, DC",38.9051617,-77.00687559999999
"4100 Massachusetts Ave NW, Washington, DC",38.9335326,-77.0818536
"2950 Van Ness St NW, Washington, DC",38.9429396,-77.06090379999998
"318 I St NE, Washington, DC",38.9015374,-77.0009133
"2000 F St NW, Washington, DC",38.897162200000004,-77.0452475
"3200 16th St NW, Washington, DC",38.93096920000001,-77.0369963
"1660 Lanier Pl NW, Washington, DC",38.926016600000004,-77.03922039999998
"1445 Ogden Street NW, Washington, DC",38.9349585,-77.03412589999998
"3429 Yuma St NW, Washington, DC",38.9465005,-77.0662718
"1301 15th St NW, Washington, DC",38.907540000000004,-77.03422499999998
"7019 Georgia Ave NW, Washington, DC",38.9755055,-77.0264455
"2500 Wisconsin Avenue Northwest, Washington, DC",38.9228441,-77.07394790000001
"425 8th St NW, Washington, DC",38.8956619,-77.0227191
"1429 Parkwood Place Northwest, Washington, DC",38.9360419,-77.03375539999998
"1446 Parkwood Place Northwest, Washington, DC",38.9358559,-77.03451740000001
"1209 6th Street Northeast, Washington, DC",38.906024200000004,-76.99824819999998
"1248 Irving Street Northwest, Washington, DC",38.928419399999996,-77.02947059999998
"1604 19th Street Northwest, Washington, DC",38.9113743,-77.04362449999998
"1901 13th Street Northwest, Washington, DC",38.91575539999999,-77.02932690000002
"2136 O Street Northwest, Washington, DC",38.9083575,-77.0480023
"526 5th Street Southeast, Washington, DC",38.8819364,-76.99922140000001
"5430 North Capitol Street Northwest, Washington, DC",38.9557613,-77.0093727
"1704 Q St NW, Washington, DC",38.910891,-77.038967
"1765 R Street Northwest, Washington, DC",38.9128605,-77.04130450000001
"503 Independence Avenue Southeast, Washington, DC",38.887479299999995,-76.999219
"1800 19th Street Northwest, Washington, DC",38.9143463,-77.0436562
"712 G Street Southeast, Washington, DC",38.8815013,-76.9954697
"1105 East Capitol Street Southeast, Washington, DC",38.8889994,-76.9912064
"114 F Street Southeast, Washington, DC",38.88216020000001,-77.00531240000001
"2630 Monroe Street Northeast, Washington, DC",38.933297100000004,-76.9688292
"144 11th Street Southeast, Washington, DC",38.88797879999999,-76.99125129999999
"144 11th St SE, Washington, DC",38.88797879999999,-76.99125129999999
"602 Chaplin Street Southeast, Washington, DC",38.881557,-76.94024
"2022 1st Street Northwest, Washington, DC",38.917635499999996,-77.01244319999998
"448 N Street Northwest, Washington, DC",38.9071111,-77.0177518
"86 Q Street Southwest, Washington, DC",38.870545,-77.011821
"3126 16th Street Northwest, Washington, DC",38.9294645,-77.0368502
"4607 Hunt Place Northeast, Washington, DC",38.900487299999995,-76.9359642
"223 Bates Street Northwest, Washington, DC",38.910534399999996,-77.01440040000001
"901 North Carolina Avenue Southeast, Washington, DC",38.8881777,-76.99354609999999
"3220 Walbridge Place Northwest, Washington, DC",38.93222189999999,-77.04561860000003
"1631 Montello Avenue Northeast, Washington, DC",38.9078027,-76.986307
"2000 16th Street Northwest, Washington, DC",38.9172483,-77.0368814
"1230 4th Street Northwest, Washington, DC",38.9067842,-77.0164191
"1118 3rd Street NE, Washington, DC",38.904247999999995,-77.002321
"1433 A Street Southeast, Washington, DC",38.88843920000001,-76.98439570000001
"616 E Street Northwest, Washington, DC",38.89587,-77.02127759999998
"1440 N Street Northwest, Washington, DC",38.9070531,-77.0332829
"529 16th Street Northeast, Washington, DC",38.8971232,-76.98206019999998
"811 Barnaby Street Southeast, Washington, DC",38.829553999999995,-76.9941648
"801 Jefferson Street NW, Washington, DC",38.955490000000005,-77.024185
"2022 N Street Northwest, Washington, DC",38.907089500000005,-77.04636070000001
"48 Madison Street Northwest, Washington, DC",38.95856029999999,-77.0110823
"1125 12th Street Northwest, Washington, DC",38.9049743,-77.02785349999998
"1425 11th Street Northwest, Washington, DC",38.9092029,-77.02671540000001
"215 Rock Creek Church Road Northwest, Washington, DC",38.941743200000005,-77.0141416
"401 13th Street Northeast, Washington, DC",38.895129,-76.9880227
"249 14th Place Northeast, Washington, DC",38.893198600000005,-76.984344
"1239 Vermont Avenue Northwest, Washington, DC",38.9070003,-77.03067390000001
"123 13th Street Southeast, Washington, DC",38.8882195,-76.9884951
"4127 Minnesota Avenue Northeast, Washington, DC",38.8986516,-76.94617790000001
"1622 H St SE, Washington, DC",38.8804627,-76.98129519999998
"1012 6th Street Northeast, Washington, DC",38.903045500000005,-76.99869809999998
"831 L Street Northeast, Washington, DC",38.9037259,-76.9940455
"765 Delaware Avenue Southwest, Washington, DC",38.8803347,-77.014421
"1427 E Street Northeast, Washington, DC",38.895865,-76.984391
"1440 Fairmont Street Northwest, Washington, DC",38.924239299999996,-77.03349659999998
"1810 M Street Northeast, Washington, DC",38.905818,-76.9775938
"1913 Rosedale St NE, Washington, DC",38.896583899999996,-76.97657
"1215 Harvard Street Northwest, Washington, DC",38.9269821,-77.02881839999998
"4626 B Street Southeast, Washington, DC",38.8880338,-76.93481129999998
"821 Oglethorpe Street Northeast, Washington, DC",38.9580054,-76.99417609999998
"3221 8th Street Southeast, Washington, DC",38.8434093,-76.99542290000001
"2001 12th Street Northwest, Washington, DC",38.917556,-77.027891
"6523 1st Street Northwest, Washington, DC",38.9698157,-77.01135219999998
"5200 11th Street Northeast, Washington, DC",38.954666499999995,-76.99176870000001
"1515 Neal Street Northeast, Washington, DC",38.901933899999996,-76.98312
"233 Longfellow Street Northwest, Washington, DC",38.9578583,-77.01543509999998
"3670 38th Street Northwest, Washington, DC",38.9386911,-77.0761655
"1910 Kalorama Road Northwest, Washington, DC",38.9191023,-77.04551740000001
"1111 11th Street Northwest, Washington, DC",38.905029799999994,-77.02671540000001
"2020 12th Street Northwest, Washington, DC",38.9178211,-77.0284248
"350 G Street Southwest, Washington, DC",38.881053200000004,-77.0165935
"2138 California Street Northwest, Washington, DC",38.91600510000001,-77.04794609999998
"2112 Wyoming Avenue Northwest, Washington, DC",38.917446500000004,-77.0473839
"2700 N Street Northwest, Washington, DC",38.906738700000005,-77.0559363
"1015 D Street Northeast, Washington, DC",38.8945955,-76.99200499999998
"220 Bryant Street Northeast, Washington, DC",38.9215041,-77.00281509999998
"2511 Cliffbourne Place Northwest, Washington, DC",38.9229415,-77.0444267
"2101 N Street Northwest, Washington, DC",38.9073939,-77.04691600000001
"2116 T Street Southeast, Washington, DC",38.867703000000006,-76.97521429999998
"705 Quackenbos Street Northwest, Washington, DC",38.963983,-77.022853
"1314 Massachusetts Avenue Northwest, Washington, DC",38.904833399999994,-77.03067390000001
"2400 Good Hope Road Southeast, Washington, DC",38.863122499999996,-76.9724296
"1208 Holbrook Street Northeast, Washington, DC",38.9018979,-76.98453549999998
"1415 Hamilton Street Northwest, Washington, DC",38.9531168,-77.03465480000001
"88 V Street Northwest, Washington, DC",38.9179292,-77.01175719999998
"3986 Pennsylvania Avenue Southeast, Washington, DC",38.864401,-76.94769099999998
"624 Q Street Northwest, Washington, DC",38.9109414,-77.02103079999998
"3228 13th Street Northwest, Washington, DC",38.9305271,-77.02993169999998
"709 Brandywine Street Southeast, Washington, DC",38.82984709999999,-76.9956947
"38 Rhode Island Avenue Northeast, Washington, DC",38.917587,-77.0077589
"3838 South Capitol Street Southeast, Washington, DC",38.833859999999994,-77.0079162
"2501 Calvert Street Northwest, Washington, DC",38.9236213,-77.05449
"1615 Q Street Northwest, Washington, DC",38.9112906,-77.03742120000001
"4729 1st Street Southwest, Washington, DC",38.8224316,-77.0058183
"2844 Hartford Street Southeast, Washington, DC",38.854587,-76.9668939
"2901 Nelson Place Southeast, Washington, DC",38.876548,-76.967614
"4731 1st Street Southwest, Washington, DC",38.82237670000001,-77.0057338
"2512 High Street Southeast, Washington, DC",38.860108700000005,-76.9887717
"26 R Street Northwest, Washington, DC",38.912354,-77.010054
"505 19th Street Northeast, Washington, DC",38.89629559999999,-76.9771028
"1144 Oates Street Northeast, Washington, DC",38.905967,-76.9889451
"1107 Massachusetts Avenue Northwest, Washington, DC",38.904411100000004,-77.0274577
"1103 5th Street Northwest, Washington, DC",38.904363700000005,-77.01867399999998
"3116 Dumbarton Street Northwest, Washington, DC",38.9074533,-77.0619217
"3537 New Hampshire Avenue Northwest, Washington, DC",38.9339175,-77.02575709999998
"2322 High Street Southeast, Washington, DC",38.8618075,-76.9869989
"3024 Pineview Court Northeast, Washington, DC",38.929033600000004,-76.95772889999998
"1856 Kalorama Road Northwest, Washington, DC",38.9194391,-77.0436958
"1334 Maryland Avenue Northeast, Washington, DC",38.8992259,-76.9863689
"1831 Belmont Road Northwest, Washington, DC",38.9207752,-77.04326850000001
"825 10th Street Northwest, Washington, DC",38.9001318,-77.02563070000001
"1385 Nicholson Street Northwest, Washington, DC",38.9603938,-77.03313670000001
"1500 Oates Street Northeast, Washington, DC",38.90345550000001,-76.9830502
"2430 4th Street Northeast, Washington, DC",38.9220604,-77.00081290000001
"3415 13th Street Northwest, Washington, DC",38.9318515,-77.0294931
"1522 R Street Northwest, Washington, DC",38.9123951,-77.03569300000001
"4409 Foote Street Northeast, Washington, DC",38.8972881,-76.9387504
"2221 I Street Northwest, Washington, DC",38.90099439999999,-77.04957859999998
"3060 16th Street Northwest, Washington, DC",38.928390500000006,-77.03673200000001
"1305 H Street Northeast, Washington, DC",38.900008299999996,-76.98796639999998
"1226 Meigs Place Northeast, Washington, DC",38.9081028,-76.98512020000001
"2903 R Street Southeast, Washington, DC",38.86929979999999,-76.96564659999999
"2263 16th Street Northeast, Washington, DC",38.920621000000004,-76.981442
"2910 13th Street Northwest, Washington, DC",38.9271138,-77.02998790000001
"70 N Street SE, Washington, DC",38.874754100000004,-77.0067703
"2301 Champlain Street Northwest, Washington, DC",38.920823,-77.0408396
"118 W Street Northwest, Washington, DC",38.91894,-77.01280899999998
"2725 39th Street Northwest, Washington, DC",38.925306400000004,-77.0786162
"1607 Trinidad Avenue Northeast, Washington, DC",38.90601849999999,-76.98398399999998
"565 Pennsylvania Avenue Northwest, Washington, DC",38.893294299999994,-77.01965200000001
"3631 Commodore Joshua Barney Drive Northeast, Washington, DC",38.92363659999999,-76.95462490000001
"1604 Isherwood Street Northeast, Washington, DC",38.8956314,-76.98181269999998
"1301 Delaware Avenue Southwest, Washington, DC",38.87383270000001,-77.01544899999998
"44 R Street Northeast, Washington, DC",38.9124361,-77.0074489
"1901 Savannah Place Southeast, Washington, DC",38.848818,-76.9765137
"334 36th Street Northeast, Washington, DC",38.894602899999995,-76.9550678
"1018 Douglas Street Northeast, Washington, DC",38.9236667,-76.99078999999998
"421 I Street Southeast, Washington, DC",38.8791002,-76.9998427
"1261 Simms Place Northeast, Washington, DC",38.908742499999995,-76.9836388
"3215 12th Street Northeast, Washington, DC",38.930088,-76.99037849999998
"812 5th Street NE, Washington, DC",38.9006625,-76.99978519999998
"700 7th Street Southwest, Washington, DC",38.8802669,-77.0215353
"5713 6th Street Northwest, Washington, DC",38.95924189999999,-77.0209314
"1418 Euclid Street Northwest, Washington, DC",38.9232738,-77.03319359999998
"2829 Connecticut Avenue Northwest, Washington, DC",38.9275487,-77.05358989999998
"1167 Morse Street Northeast, Washington, DC",38.9037886,-76.99035129999999
"2030 Flagler Place Northwest, Washington, DC",38.917845299999996,-77.0137704
"1202 Jackson Street Northeast, Washington, DC",38.92967410000001,-76.990402
"607 Florida Avenue Northwest, Washington, DC",38.9158073,-77.0204286
"4471 Macarthur Boulevard Northwest, Washington, DC",38.9083387,-77.08421419999998
"3033 New Mexico Avenue Northwest, Washington, DC",38.9288395,-77.0829327
"2300 Irving Street Southeast, Washington, DC",38.853266299999994,-76.97296970000001
"3110 Cityscape Dr NE, Washington, DC",38.9269066,-76.95981789999998
"5326 43rd Street Northwest, Washington, DC",38.960040899999996,-77.08398299999999
"2043 38th Street Southeast, Washington, DC",38.86363619999999,-76.95249079999998
"1101 Trenton Place Southeast, Washington, DC",38.84034949999999,-76.99116059999999
"235 Division Avenue Northeast, Washington, DC",38.893325,-76.92715799999998
"4403 7th Street Northeast, Washington, DC",38.9428394,-76.99604339999998
"1101 3rd Street Southwest, Washington, DC",38.877116,-77.01576700000001
"3014 Dent Pl NW, Washington, DC",38.9117442,-77.0598418
"500 G Street Southwest, Washington, DC",38.881068,-77.018911
"215 Upshur Street Northwest, Washington, DC",38.9423802,-77.0144565
"4770 Dexter Street Northwest, Washington, DC",38.9244335,-77.09212740000001
"1434 Perry Place Northwest, Washington, DC",38.9364819,-77.0342314
"38 K Street Southeast, Washington, DC",38.8784068,-77.00743849999998
"4662 Hillside Road Southeast, Washington, DC",38.8767102,-76.93157
"4706 8th Street Northwest, Washington, DC",38.947564,-77.023922
"439 Quincy Street Northwest, Washington, DC",38.93798779999999,-77.0186292
"712 Bayley Place Southeast, Washington, DC",38.8797802,-76.9637209
"1414 22nd Street Northwest, Washington, DC",38.908798700000006,-77.0491605
"3105 Naylor Road Southeast, Washington, DC",38.852633700000005,-76.9637541
"1652 West Virginia Avenue Northeast, Washington, DC",38.9093007,-76.98750179999998
"1503 11th Street Northwest, Washington, DC",38.909957299999995,-77.0267825
"715 Kenyon Street Northwest, Washington, DC",38.93022810000001,-77.02424620000001
"637 Park Road Northwest, Washington, DC",38.933136,-77.023167
"5402 Connecticut Avenue Northwest, Washington, DC",38.9612766,-77.07384979999998
"3010 Wisconsin Avenue Northwest, Washington, DC",38.9296814,-77.07354050000001
"2607 31st Street Northwest, Washington, DC",38.92389259999999,-77.06119100000001
"471 M Street Northwest, Washington, DC",38.905861200000004,-77.0185239
"607 G Street Southeast, Washington, DC",38.8810894,-76.99795569999998
"1364 Monroe Street Northwest, Washington, DC",38.931483899999996,-77.03192920000001
"4800 C Street Southeast, Washington, DC",38.8857529,-76.93381720000001
"1763 Columbia Road Northwest, Washington, DC",38.9237325,-77.0417392
"2835 Gainesville Street Southeast, Washington, DC",38.8549342,-76.967479
"1843 Mintwood Place Northwest, Washington, DC",38.9214922,-77.0447003
"2010 Channing Street NE, Washington, DC",38.9225158,-76.97554609999999
"601 Pennsylvania Avenue Northwest, Washington, DC",38.893588799999996,-77.0203981
"1919 16th Street Northwest, Washington, DC",38.91620820000001,-77.03610549999998
"4424 Foote Street Northeast, Washington, DC",38.8977193,-76.93804140000002
"1318 22nd Street Northwest, Washington, DC",38.9078606,-77.0490255
"413 A Street Northeast, Washington, DC",38.8907801,-77.00007049999998
"621 Allison Street Northwest, Washington, DC",38.945453,-77.021013
"1819 Gales Street NE, Washington, DC",38.897617499999996,-76.9773969
"1126 25th Street Northwest, Washington, DC",38.9046589,-77.0534438
"3690 38th Street Northwest, Washington, DC",38.9392112,-77.07593709999998
"1794 Lanier Place Northwest, Washington, DC",38.92363659999999,-77.0430906
"1325 13th Street Northwest, Washington, DC",38.908320700000004,-77.02932229999998
"3201 Buena Vista Terrace Southeast, Washington, DC",38.8511491,-76.96702900000003
"1931 17th Street Northwest, Washington, DC",38.91649719999999,-77.0380509
"1200 Shepherd Street Northwest, Washington, DC",38.939618200000005,-77.0278797
"3930 Alabama Avenue Southeast, Washington, DC",38.8691296,-76.94852990000001
"4408 1st Place Northeast, Washington, DC",38.9440936,-77.00692560000002
"2101 11th Street Northwest, Washington, DC",38.9183182,-77.0266802
"504 C Street Northeast, Washington, DC",38.894286,-76.99908599999998
"3883 Connecticut Avenue Northwest, Washington, DC",38.9401354,-77.0599093
"3418 Brown Street Northwest, Washington, DC",38.9344832,-77.0378003
"1 Scott Circle Northwest, Washington, DC",38.9077775,-77.03609589999998
"542 24th Street Northeast, Washington, DC",38.8971984,-76.97268840000001
"4114 New Hampshire Avenue Northwest, Washington, DC",38.9413895,-77.02087850000001
"610 19th Street Northeast, Washington, DC",38.897124299999994,-76.977082
"804 Rhode Island Avenue Northwest, Washington, DC",38.911522999999995,-77.02341190000001
"4600 Connecticut Avenue Northwest, Washington, DC",38.950374100000005,-77.06786899999999
"1005 V Street Northwest, Washington, DC",38.91828579999999,-77.02627109999999
"1348 Euclid Street Northwest, Washington, DC",38.923571,-77.0310338
"1601 18th Street Northwest, Washington, DC",38.9113109,-77.04123100000001
"1230 Holbrook Terrace NE, Washington, DC",38.90737379999999,-76.98559270000001
"1390 Kenyon Street Northwest, Washington, DC",38.929739399999995,-77.03217839999998
"730 24th Street Northwest, Washington, DC",38.8989336,-77.05172409999999
"1133 14th Street Northwest, Washington, DC",38.90470620000001,-77.03157740000002
"1930 18th Street Northwest, Washington, DC",38.916409200000004,-77.04176890000001
"436 Ridge Street Northwest, Washington, DC",38.906284899999996,-77.017404
"1755 18th Street Northwest, Washington, DC",38.913951000000004,-77.04142940000001
"1300 4th Street Southwest, Washington, DC",38.874646899999995,-77.0175505
"2030 F Street Northwest, Washington, DC",38.8971643,-77.0460986
"1715 Swann Street Northwest, Washington, DC",38.9150481,-77.03942679999999
"1816 New Hampshire Avenue Northwest, Washington, DC",38.91489310000001,-77.03877059999998
"728 Ingraham Street Northwest, Washington, DC",38.953952,-77.023246
"3269 Sutton Place Northwest, Washington, DC",38.9333838,-77.0835623
"1400 Church Street Northwest, Washington, DC",38.910219500000004,-77.03232659999998
"1300 35th Street Northwest, Washington, DC",38.9068551,-77.06919559999999
"1822 Vernon Street Northwest, Washington, DC",38.9167449,-77.04257129999998
"4214 Embassy Park Drive Northwest, Washington, DC",38.9341172,-77.0830378
"29 Rhode Island Avenue Northwest, Washington, DC",38.91666499999999,-77.01031499999998
"631 D Street Northwest, Washington, DC",38.895327200000004,-77.02106850000001
"2130 N Street Northwest, Washington, DC",38.907003700000004,-77.0481302
"2500 Virginia Avenue Northwest, Washington, DC",38.8986969,-77.0542554
"1831 2nd Street Northeast, Washington, DC",38.915223600000004,-77.0032489
"300 M Street Southwest, Washington, DC",38.8759398,-77.0164585
"2515 K Street Northwest, Washington, DC",38.902891,-77.0539053
"1721 4th Street Northwest, Washington, DC",38.9132914,-77.01600140000001
"1015 33rd Street Northwest, Washington, DC",38.9036648,-77.06562059999999
"2022 Columbia Road Northwest, Washington, DC",38.917040899999996,-77.04538240000001
"1710 H Street Northwest, Washington, DC",38.8999466,-77.04037509999998
"1830 17th Street Northwest, Washington, DC",38.91534420000001,-77.03864859999999
"1322 15th Street Northwest, Washington, DC",38.9082449,-77.03459889999998
"2107 S Street Northwest, Washington, DC",38.9142265,-77.04683320000001
"1632 30th Street Northwest, Washington, DC",38.911530799999994,-77.0595495
"1080 Wisconsin Avenue Northwest, Washington, DC",38.904651,-77.0629616
"460 New York Avenue Northwest, Washington, DC",38.90389649999999,-77.0180781
"2510 Ontario Road Northwest, Washington, DC",38.9234541,-77.0404236
"1763 P Street Northwest, Washington, DC",38.90985149999999,-77.0412446
"414 Seward Square Southeast, Washington, DC",38.88678529999999,-76.99996920000001
"1245 13th Street Northwest, Washington, DC",38.9070089,-77.0294317
"410 O Street Southwest, Washington, DC",38.8733143,-77.0183066
"1111 25th Street Northwest, Washington, DC",38.9045789,-77.05297139999998
"2202 Wyoming Avenue Northwest, Washington, DC",38.916795,-77.0493516
"3203 10th Street Northeast, Washington, DC",38.929881,-76.99218499999998
"2200 17th Street Northwest, Washington, DC",38.9198081,-77.0389505
"1830 Jefferson Place Northwest, Washington, DC",38.9062901,-77.04290859999998
"3701 Connecticut Avenue Northwest, Washington, DC",38.9383794,-77.0593559
"24 Rhode Island Avenue Northeast, Washington, DC",38.917411799999996,-77.00814670000001
"1252 E Street Northeast, Washington, DC",38.896328999999994,-76.98849799999998
"1327 Euclid Street Northwest, Washington, DC",38.9239313,-77.0306538
"2424 17th Street Northwest, Washington, DC",38.922336,-77.0393103
"907 N Street Northwest, Washington, DC",38.9073935,-77.02445490000002
"424 Q Street Northwest, Washington, DC",38.9108175,-77.0175385
"2101 Connecticut Ave NW, Washington, DC",38.9183916,-77.04704659999999
"2151 Florida Avenue Northwest, Washington, DC",38.9123526,-77.04802480000001
"1221 4th St NW, Washington, DC",38.906341999999995,-77.01586999999998
"3759 W Street Northwest, Washington, DC",38.9193704,-77.075862
"3805 Van Ness Street Northwest, Washington, DC",38.943383600000004,-77.0754461
"475 K Street Northwest, Washington, DC",38.9028275,-77.01833020000001
"1618 S Street Northwest, Washington, DC",38.9138911,-77.03748039999998
"612 Alabama Avenue Southeast, Washington, DC",38.8433967,-76.99732579999998
"541 Florida Avenue Northwest, Washington, DC",38.915496000000005,-77.019657
"111 11th Street Southeast, Washington, DC",38.888737,-76.99174620000001
"1439 Spring Road Northwest, Washington, DC",38.9376479,-77.03496100000002
"1101 Fern Street Northwest, Washington, DC",38.9781989,-77.0266929
"3620 Prospect Street Northwest, Washington, DC",38.9056584,-77.0709052
"1013 E Street Southeast, Washington, DC",38.8825201,-76.99204999999998
"2812 P Street Northwest, Washington, DC",38.9091796,-77.057728
"2035 Rosemont Avenue Northwest, Washington, DC",38.9644213,-77.0757496
"3908 Georgetown Court Northwest, Washington, DC",38.91377070000001,-77.0769578
"1111 23rd Street Northwest, Washington, DC",38.904443799999996,-77.0498946
"2205 40th Place Northwest, Washington, DC",38.9194516,-77.07953789999998
"4528 9th Street Northwest, Washington, DC",38.945921999999996,-77.02561299999998
"1408 Florida Avenue Northwest, Washington, DC",38.919742,-77.032534
"425 Oglethorpe Street Northwest, Washington, DC",38.961493100000006,-77.0193152
"1445 Church Street Northwest, Washington, DC",38.910579,-77.03350630000001
"1503 Vermont Avenue Northwest, Washington, DC",38.9102869,-77.02889990000001
"1920 3rd Street Northeast, Washington, DC",38.9162721,-77.0023989
"2835 4th St NE, Washington, DC",38.926608,-77.00031
"4211 16th Street Northwest, Washington, DC",38.942401000000004,-77.03600429999999
"925 H Street Northwest, Washington, DC",38.9000865,-77.0245111
"1916 Biltmore Street Northwest, Washington, DC",38.9220169,-77.045362
"355 I Street Southwest, Washington, DC",38.87976870000001,-77.0165935
"3299 K Street Northwest, Washington, DC",38.903312899999996,-77.06463120000001
"2507 Foxhall Road Northwest, Washington, DC",38.9237777,-77.08931729999998
"3050 N Street Northwest, Washington, DC",38.906665999999994,-77.06106659999998
"1427 West Virginia Avenue Northeast, Washington, DC",38.9070045,-76.98933889999998
"4806 Foxhall Crescent Northwest, Washington, DC",38.9237697,-77.09354359999998
"57 N Street Northwest, Washington, DC",38.9074426,-77.0111895
"3210 Grace Street Northwest, Washington, DC",38.90378870000001,-77.063507
"721 12th Street Southeast, Washington, DC",38.880420799999996,-76.99052009999998
"1155 23rd Street Northwest, Washington, DC",38.9048509,-77.0497634
"2425 L Street Northwest, Washington, DC",38.90428989999999,-77.05233620000001
"701 Lamont Street Northwest, Washington, DC",38.9313402,-77.02415119999998
"1111 Orren Street Northeast, Washington, DC",38.901335499999995,-76.98617709999998
"920 I Street Northwest, Washington, DC",38.900681799999994,-77.02455700000002
"1322 T Street Northwest, Washington, DC",38.9154001,-77.03070770000001
"3401 38th Street Northwest, Washington, DC",38.9359003,-77.073759
"304 Oklahoma Avenue Northeast, Washington, DC",38.8953402,-76.9735182
"1511 P Street Northwest, Washington, DC",38.909849799999996,-77.0351431
"3421 Reservoir Road Northwest, Washington, DC",38.9128278,-77.0686897
"834 Madison Street Northwest, Washington, DC",38.958177899999995,-77.02539
"1248 Columbia Road Northwest, Washington, DC",38.9274309,-77.0288858
"622 19th Street Northeast, Washington, DC",38.8972756,-76.97709870000001
"1502 17th Street Northwest, Washington, DC",38.909842299999994,-77.03869870000001
"1413 Swann Street Northwest, Washington, DC",38.9149545,-77.0327203
"2734 Ordway Street Northwest, Washington, DC",38.934977200000006,-77.0569776
"1907 Belmont Road Northwest, Washington, DC",38.9207466,-77.04580240000001
"651 Maryland Avenue Northeast, Washington, DC",38.8943275,-76.9968308
"1833 California Street Northwest, Washington, DC",38.918048999999996,-77.0427512
"2600 Sherman Avenue Northwest, Washington, DC",38.9240089,-77.0258382
"1801 16th Street Northwest, Washington, DC",38.9143471,-77.0362212
"3027 15th Street Northwest, Washington, DC",38.9278651,-77.0355323
"2801 Jasper Street Southeast, Washington, DC",38.8510925,-76.96777159999998
"416 A Street Southeast, Washington, DC",38.8888484,-76.99984549999998
"2252 Mount View Place Southeast, Washington, DC",38.8631603,-76.98902389999998
"175 V Street Northeast, Washington, DC",38.9179352,-77.00389489999998
"5885 Colorado Avenue Northwest, Washington, DC",38.9610438,-77.02853139999998
"4101 Cathedral Avenue Northwest, Washington, DC",38.9305425,-77.07951539999998
"3410 Dent Pl NW, Washington, DC",38.91152599999999,-77.06830240000001
"935 Quincy Street Northwest, Washington, DC",38.93779179999999,-77.0265017
"1010 25th Street Northwest, Washington, DC",38.903127000000005,-77.0535843
"1904 Rosedale St NE, Washington, DC",38.896946,-76.97676799999998
"2858 Chancellor's Way Northeast, Washington, DC",38.926882299999995,-76.99964299999998
"66 New York Avenue Northwest, Washington, DC",38.9063402,-77.01138569999998
"535 3rd Street Northeast, Washington, DC",38.897096999999995,-77.0018797
"335 W Street Northeast, Washington, DC",38.919004,-77.0007454
"88 V Street Southwest, Washington, DC",38.8644435,-77.01190140000001
"800 Elder Street Northwest, Washington, DC",38.9770941,-77.02471349999998
"512 Tennessee Avenue Northeast, Washington, DC",38.8964914,-76.98498520000001
"1431 11th Street Northwest, Washington, DC",38.9093411,-77.02668050000001
"2611 Adams Mill Road Northwest, Washington, DC",38.923814799999995,-77.0438982
"5611 5th Street Northwest, Washington, DC",38.9579755,-77.0197651
"822 9th Street Northeast, Washington, DC",38.90115309999999,-76.99391120000001
"811 4th Street Northwest, Washington, DC",38.9010047,-77.01591859999998
"3 Washington Circle NW, Washington, DC",38.903279600000005,-77.05036640000002
"2516 East Place Northwest, Washington, DC",38.9101249,-77.0544561
"3640 Jamison Street Northeast, Washington, DC",38.924809700000004,-76.9531494
"2600 Tunlaw Road Northwest, Washington, DC",38.923803799999995,-77.0756821
"1247 Wisconsin Avenue Northwest, Washington, DC",38.9061583,-77.06263
"4009 8th Street Northeast, Washington, DC",38.93982020000001,-76.99425490000002
"17 Evarts Street Northeast, Washington, DC",38.9243118,-77.00814670000001
"2475 Virginia Avenue Northwest, Washington, DC",38.89905,-77.052542
"400 Massachusetts Avenue Northwest, Washington, DC",38.9000581,-77.0171333
"1400 1st Street Southwest, Washington, DC",38.872811,-77.01190199999998
"1000 New Jersey Avenue Southeast, Washington, DC",38.878060999999995,-77.00439279999998
"2939 Van Ness Street Northwest, Washington, DC",38.944396999999995,-77.05999920000001
"410 K Street Northeast, Washington, DC",38.902806,-77.00008729999998
"3935 9th Street Northeast, Washington, DC",38.9390426,-76.9937599
"124 Wilmington Place Southeast, Washington, DC",38.8366463,-77.0046935
"916 7th Street Northeast, Washington, DC",38.901861100000005,-76.99638089999998
"701 Pennsylvania Avenue Northwest, Washington, DC",38.8945661,-77.0225318
"525 Water Street Southwest, Washington, DC",38.876059000000005,-77.02023989999998
"1200 Q Street Northwest, Washington, DC",38.9109746,-77.02841200000002
"1443 East Capitol Street Northeast, Washington, DC",38.889610299999994,-76.98396960000002
"2004 D Street Northeast, Washington, DC",38.89498270000001,-76.9758949
"1391 Pennsylvania Avenue Southeast, Washington, DC",38.880206099999995,-76.98761230000001
"2245 12th Street Northwest, Washington, DC",38.9201963,-77.02785879999998
"1330 Park Road Northwest, Washington, DC",38.9307708,-77.0308694
"901 26th Street Northwest, Washington, DC",38.9009189,-77.0545746
"2440 16th Street Northwest, Washington, DC",38.922092299999996,-77.0367548
"1265 Simms Place Northeast, Washington, DC",38.908601899999994,-76.9835002
"3725 12th Street Northeast, Washington, DC",38.9354113,-76.99090249999998
"3216 28th Street Southeast, Washington, DC",38.8503771,-76.967659
"1269 Raum St NE, Washington, DC",38.9078198,-76.98368020000001
"1813 35th Street Northwest, Washington, DC",38.9151014,-77.0690157
"4564 Macarthur Boulevard Northwest, Washington, DC",38.9091933,-77.0879011
"880 P Street Northwest, Washington, DC",38.90940620000001,-77.02345859999998
"1357 R St NW, Washington, DC",38.9127472,-77.0312844
"1230 Eton Ct NW, Washington, DC",38.9054627,-77.065507
"4341 Massachusetts Avenue Northwest, Washington, DC",38.937281,-77.0847727
"922 24th Street Northwest, Washington, DC",38.9014619,-77.0516196
"417 New Jersey Avenue Southeast, Washington, DC",38.8844631,-77.00740429999998
"2612 29th Street Southeast, Washington, DC",38.8585891,-76.9650037
"830 D Street Southeast, Washington, DC",38.884756700000004,-76.99399609999998
"1202 30th Street Northwest, Washington, DC",38.9054229,-77.05932
"2466 Tunlaw Road Northwest, Washington, DC",38.922360999999995,-77.07486800000001
"1440 Corcoran Street Northwest, Washington, DC",38.911671000000005,-77.033636
"3009 M Street Northwest, Washington, DC",38.9053685,-77.05952690000001
"1745 N Street Northwest, Washington, DC",38.9074939,-77.04023240000001
"333 8th Street Southeast, Washington, DC",38.885124,-76.99527300000003
"777 C Street Southeast, Washington, DC",38.8855673,-76.9952667
"1435 4th Street Southwest, Washington, DC",38.872240999999995,-77.017894
"912 F Street Northwest, Washington, DC",38.897,-77.02471
"1111 25th St NW, Washington, DC",38.9045789,-77.05297139999998
"2503 Chain Bridge Road Northwest, Washington, DC",38.9221499,-77.1000401
"5150 Manning Place Northwest, Washington, DC",38.9336521,-77.10673849999998
"4100 Cathedral Avenue Northwest, Washington, DC",38.92964540000001,-77.08045969999998
"4031 Mansion Drive Northwest, Washington, DC",38.91673400000001,-77.07969
"2243 40th Street Northwest, Washington, DC",38.9204979,-77.0786171
"4457 Macarthur Boulevard Northwest, Washington, DC",38.908143,-77.08355499999998
"333 8th St SE, Washington, DC",38.885124,-76.99527300000003
"1150 K Street Northwest, Washington, DC",38.9022175,-77.0277387
"1177 22nd Street Northwest, Washington, DC",38.9048618,-77.04829509999998
"2600 Pennsylvania Avenue Northwest, Washington, DC",38.90394439999999,-77.0550705
"6923 Maple Street Northwest, Washington, DC",38.9734644,-77.0156262
"1010 Massachusetts Avenue Northwest, Washington, DC",38.9035058,-77.0264955
"1671 Fort Davis Place Southeast, Washington, DC",38.8663979,-76.94806849999998
"1429 S Street Southeast, Washington, DC",38.8680437,-76.98391649999998
"3103 Georgia Avenue Northwest, Washington, DC",38.9291854,-77.0230041
"1612 20th Street Northwest, Washington, DC",38.911686200000005,-77.04513490000001
"3149 Fort Lincoln Drive Northeast, Washington, DC",38.925870700000004,-76.95993680000001
"2401 Benning Road Northeast, Washington, DC",38.8978409,-76.9720628
"1733 Gales Pl NE, Washington, DC",38.8983672,-76.9784813
"1333 29th Street Northwest, Washington, DC",38.9079094,-77.05803420000001
"909 Quincy Street Northeast, Washington, DC",38.9378151,-76.9942548
"1230 23rd Street Northwest, Washington, DC",38.905970700000005,-77.05033829999998
"1223 Wylie Street Northeast, Washington, DC",38.90064479999999,-76.98933889999998
"1705 L Street Northeast, Washington, DC",38.90353950000001,-76.97979889999998
"4986 Just Street Northeast, Washington, DC",38.902941,-76.93023199999998
"1640 Portal Drive Northwest, Washington, DC",38.989768299999994,-77.03858740000001
"314 Atlantic Street Southeast, Washington, DC",38.8311658,-77.0011844
"1117 10th Street Northwest, Washington, DC",38.9046884,-77.02562040000001
"2529 North Capitol Street Northeast, Washington, DC",38.9232508,-77.00878780000001
"4301 Military Road Northwest, Washington, DC",38.961407,-77.08429699999998
"801 Pennsylvania Avenue Northwest, Washington, DC",38.8942061,-77.02361140000002
"2550 17th Street Northwest, Washington, DC",38.924488700000005,-77.03935899999998
"1341 Monroe Street Northwest, Washington, DC",38.932119,-77.03110500000001
"2801 Connecticut Avenue Northwest, Washington, DC",38.9270928,-77.0530733
"3225 Grace Street Northwest, Washington, DC",38.9041198,-77.06415899999998
"940 25th Street Northwest, Washington, DC",38.901711999999996,-77.05372000000001
"3101 New Mexico Avenue Northwest, Washington, DC",38.9323848,-77.0827079
"3 New York Avenue Northwest, Washington, DC",38.906949,-77.01026800000001
"2501 M Street Northwest, Washington, DC",38.905507,-77.05379289999998
"4994 Warren Street Northwest, Washington, DC",38.944760200000005,-77.0977472
"516 Shepherd St NW, Washington, DC",38.93973039999999,-77.0197525
"2725 Connecticut Avenue Northwest, Washington, DC",38.926410499999996,-77.0527135
"2555 Pennsylvania Avenue Northwest, Washington, DC",38.9046895,-77.0540178
"3211 Georgia Avenue Northwest, Washington, DC",38.9304001,-77.0231953
"1111 24th Street Northwest, Washington, DC",38.90413119999999,-77.0511178
"2401 H Street Northwest, Washington, DC",38.8999319,-77.0516791
"1151 3rd Street NE, Washington, DC",38.904927,-77.00178199999998
"940 25th St NW, Washington, DC",38.901711999999996,-77.05372000000001
"1920 S Street Northwest, Washington, DC",38.9138682,-77.04464050000001
"1416 Meridian Place Northwest, Washington, DC",38.933373100000004,-77.03356339999998
"3224 Klingle Road Northwest, Washington, DC",38.929935,-77.065159
"1246 New Jersey Avenue Northwest, Washington, DC",38.9068216,-77.0156375
"5013 12th Street Northeast, Washington, DC",38.950825099999996,-76.99023879999999
"2141 I St NW, Washington, DC",38.90098510000001,-77.04823090000001
"4626 Charleston Terrace Northwest, Washington, DC",38.9116015,-77.0886204
"1679 W Street Southeast, Washington, DC",38.8627527,-76.9801701
"3422 Georgia Avenue Northwest, Washington, DC",38.932611,-77.024164
"1816 12th Street Northwest, Washington, DC",38.91494489999999,-77.0284679
"449 New Jersey Avenue Southeast, Washington, DC",38.8835244,-77.00708940000001
"1301 20th Street Northwest, Washington, DC",38.9076058,-77.0446178
"1042 Paper Mill Ct NW, Washington, DC",38.903715500000004,-77.0643439
"45 Sutton Sq SW, Washington, DC",38.8790341,-77.02459759999998
"3015 Georgia Avenue Northwest, Washington, DC",38.92867010000001,-77.02297039999998
"3147 Cherry Road Northeast, Washington, DC",38.9267407,-76.96182859999998
"1254 Holbrook Terrace NE, Washington, DC",38.9070393,-76.9849402
"4201 Cathedral Avenue Northwest, Washington, DC",38.9311869,-77.083832
"1705 P Street Northwest, Washington, DC",38.909867999999996,-77.03896979999998
"1045 31st Street NW, Washington, DC",38.9038068,-77.06080870000001
"810 Tewkesbury Place Northwest, Washington, DC",38.96776029999999,-77.0246798
"2750 14th Street Northwest, Washington, DC",38.9252777,-77.0326532
"1807 California Street Northwest, Washington, DC",38.918086100000004,-77.04218900000001
"15 Dupont Circle Northwest, Washington, DC",38.909852799999996,-77.0424632
"6416 2nd Place Northwest, Washington, DC",38.9678519,-77.0152663
"15 DuPont Cir NW, Washington, DC",38.9099211,-77.0423689
"1514 Wisconsin Avenue Northwest, Washington, DC",38.909254700000005,-77.0644738
"1201 O Street Northwest, Washington, DC",38.9087267,-77.02833659999999
"2153 California Street Northwest, Washington, DC",38.91627379999999,-77.0489793
"1711 U Street Northwest, Washington, DC",38.917235,-77.03899299999998
"1813 16th Street Northwest, Washington, DC",38.9144773,-77.0360895
"3511 14th Street Northwest, Washington, DC",38.9350385,-77.032327
"662 Irving Street Northwest, Washington, DC",38.9288127,-77.02263289999998
"4840 Macarthur Boulevard Northwest, Washington, DC",38.9170703,-77.0968742
"5006 2nd Street Northwest, Washington, DC",38.951562200000005,-77.01373670000001
"1375 Childress Street Northeast, Washington, DC",38.9055204,-76.98215019999998
"933 5th Street Southeast, Washington, DC",38.878532,-76.99977299999998
"3245 P Street Northwest, Washington, DC",38.9089752,-77.06475490000001
"1234 28th Street Northwest, Washington, DC",38.9063411,-77.0571997
"635 20th Street Northeast, Washington, DC",38.8970554,-76.97583540000001
"67 Bates Street Northwest, Washington, DC",38.9105277,-77.0113185
"555 Massachusetts Ave NW, Washington, DC",38.901746,-77.01929270000001
"1822 15th Street Northwest, Washington, DC",38.91495689999999,-77.0348798
"2129 Florida Avenue Northwest, Washington, DC",38.9132261,-77.0474964
"910 M Street Northwest, Washington, DC",38.9054055,-77.0246698
"2247 12th Street Northwest, Washington, DC",38.92019700000001,-77.02865190000001
"511 Longfellow Street Northwest, Washington, DC",38.957698799999996,-77.0204583
"4207 7th Street Northwest, Washington, DC",38.9422787,-77.02138459999998
"1426 21st Street Northwest, Washington, DC",38.9093942,-77.0469047
"1839 1st Street Northwest, Washington, DC",38.915375,-77.01191690000002
"244 Maryland Avenue Northeast, Washington, DC",38.89275,-77.00233589999998
"4311 37th Street Northwest, Washington, DC",38.9453014,-77.0721635
"2824 12th Street Northeast, Washington, DC",38.9262565,-76.99081249999998
"4602 Hillside Rd SE, Washington, DC",38.8766984,-76.9338547
"4612 Hillside Rd SE, Washington, DC",38.8766925,-76.9334495
"1415 Oak Street Northwest, Washington, DC",38.934332299999994,-77.03416
"1416 Belmont Street Northwest, Washington, DC",38.920402,-77.0325517
"1852 5th Street Northwest, Washington, DC",38.915332,-77.01872399999998
"1457 Girard Street Northwest, Washington, DC",38.9255744,-77.0346661
"1427 Chapin Street Northwest, Washington, DC",38.9217242,-77.03344240000001
"2818 Connecticut Avenue Northwest, Washington, DC",38.927043499999996,-77.0540628
"1401 17th Street Northwest, Washington, DC",38.9090092,-77.0381858
"1301 T Street Northwest, Washington, DC",38.9158043,-77.029844
"1821 16th Street Northwest, Washington, DC",38.9149381,-77.0361392
"510 N Street Southwest, Washington, DC",38.87427580000001,-77.0187198
"4224 16th Street Northwest, Washington, DC",38.9427729,-77.03681390000001
"421 10th Street Northeast, Washington, DC",38.8953924,-76.99239870000001
"204 Channing Street Northeast, Washington, DC",38.92254129999999,-77.0032088
"4316 Gorman Terrace Southeast, Washington, DC",38.8812083,-76.9422166
"3301 E Street Southeast, Washington, DC",38.88262539999999,-76.9596027
"5130 Connecticut Avenue Northwest, Washington, DC",38.9565674,-77.07124170000002
"632 Emerson Street Northeast, Washington, DC",38.9502014,-76.9969658
"615 Gallatin Street Northeast, Washington, DC",38.9516581,-76.99743829999998
"1833 S Street Northwest, Washington, DC",38.9143604,-77.04277540000001
"308 E St NE, Washington, DC",38.896322999999995,-77.0015883
"24 Girard Street Northeast, Washington, DC",38.926173999999996,-77.0077642
"1072 Thomas Jefferson Street Northwest, Washington, DC",38.90466179999999,-77.06038149999998
"1740 18th Street Northwest, Washington, DC",38.9137447,-77.0420176
"3404 13th Street Northwest, Washington, DC",38.9315813,-77.029943
"4729 1st St SW, Washington, DC",38.8224316,-77.0058183
"3700 39th Street Northwest, Washington, DC",38.9382534,-77.0781197
"1416 5th Street Northwest, Washington, DC",38.9091347,-77.01920290000001
"4336 Polk Street Northeast, Washington, DC",38.9097953,-76.9407967
"2510 M Street Northwest, Washington, DC",38.9050893,-77.0537367
"2807 Ontario Road Northwest, Washington, DC",38.925539799999996,-77.04122199999998
"1732 Church Street Northwest, Washington, DC",38.91019,-77.03955490000001
"436 Newton Place Northwest, Washington, DC",38.93394489999999,-77.020035
"3140 17th Street Northwest, Washington, DC",38.9300819,-77.0390742
"1250 4th Street Southwest, Washington, DC",38.8751479,-77.0172683
"2919 North Capitol Street Northeast, Washington, DC",38.926441,-77.008709
"6939 Georgia Avenue Northwest, Washington, DC",38.9749544,-77.0265354
"524 Roxboro Place Northwest, Washington, DC",38.96540770000001,-77.02087850000001
"1741 Johnson Avenue Northwest, Washington, DC",38.9134664,-77.03334040000001
"1020 Monroe Street Northwest, Washington, DC",38.932635,-77.02812800000001
"1438 Columbia Road Northwest, Washington, DC",38.92714779999999,-77.0338371
"2210 16th Street Southeast, Washington, DC",38.863181299999994,-76.98245390000001
"1762 Corcoran Street Northwest, Washington, DC",38.9117364,-77.0407218
"4615 Central Avenue Northeast, Washington, DC",38.890086100000005,-76.9358355
"1330 Downing Place Northeast, Washington, DC",38.9206789,-76.9845802
"333 7th Street Northeast, Washington, DC",38.8946349,-76.99599839999998
"1300 Massachusetts Avenue Northwest, Washington, DC",38.9046822,-77.03004419999998
"1322 Talbert Terrace Southeast, Washington, DC",38.8610523,-76.99080129999999
"2642 Woodley Place Northwest, Washington, DC",38.9249191,-77.05136879999998
"1211 G Street Southeast, Washington, DC",38.881082299999996,-76.9899801
"5001 Glenbrook Road Northwest, Washington, DC",38.9351044,-77.1014337
"1524 18th Street Northwest, Washington, DC",38.910365899999995,-77.04195290000001
"1204 Holbrook Street Northeast, Washington, DC",38.9018226,-76.98458029999998
"3244 Patterson Street Northwest, Washington, DC",38.9674165,-77.0655531
"208 5th Street Southeast, Washington, DC",38.8872372,-76.99926060000001
"430 Irving Street Northwest, Washington, DC",38.9292355,-77.0188204
"3025 Porter Street Northwest, Washington, DC",38.937537400000004,-77.06195550000001
"1414 Belmont Street Northwest, Washington, DC",38.920488299999995,-77.0321917
"4100 W Street Northwest, Washington, DC",38.919239700000006,-77.0817637
"405 Florida Avenue Northwest, Washington, DC",38.914536,-77.017319
"3446 Connecticut Avenue Northwest, Washington, DC",38.9353815,-77.0590098
"318 10th Street Northeast, Washington, DC",38.8941239,-76.99289370000001
"2401 Calvert Street Northwest, Washington, DC",38.923877600000004,-77.05322170000002
"3330 Alden Place Northeast, Washington, DC",38.8914502,-76.95929890000002
"21 Randle Circle Southeast, Washington, DC",38.8774401,-76.96095290000001
"2428 20th Street Northwest, Washington, DC",38.92163529999999,-77.04726009999999
"614 11th Street Northeast, Washington, DC",38.897726500000005,-76.99174620000001
"4002 New Hampshire Avenue Northwest, Washington, DC",38.9400748,-77.0218457
"715 Hamlin Street Northeast, Washington, DC",38.9272869,-76.99543990000001
"1417 Chapin Street Northwest, Washington, DC",38.921816,-77.0328483
"2531 I Street Northwest, Washington, DC",38.9008836,-77.05452369999998
"1839 A Street Southeast, Washington, DC",38.888409,-76.977638
"3614 12th Street Northeast, Washington, DC",38.93398870000001,-76.9913421
"3100 Connecticut Avenue Northwest, Washington, DC",38.93069620000001,-77.05658129999998
"3616 Connecticut Avenue Northwest, Washington, DC",38.9374433,-77.05987069999998
"1717 P Street Northwest, Washington, DC",38.9098206,-77.0395127
"1018 Florida Avenue Northeast, Washington, DC",38.903791299999995,-76.99214040000001
"1425 4th Street Southwest, Washington, DC",38.8727407,-77.01870790000001
"1108 Fairmont Street Northwest, Washington, DC",38.9245261,-77.0274913
"50 Florida Avenue Northeast, Washington, DC",38.910456700000005,-77.00759690000001
"3839 Rodman Street Northwest, Washington, DC",38.9392333,-77.0764973
"2111 Wisconsin Avenue Northwest, Washington, DC",38.9181156,-77.0687315
"3960 Langley Court Northwest, Washington, DC",38.936519700000005,-77.0784453
"1212 Delafield Place Northwest, Washington, DC",38.9487988,-77.0283573
"1930 New Hampshire Avenue Northwest, Washington, DC",38.9163682,-77.03753979999998
"549 45th Street Northeast, Washington, DC",38.8969245,-76.9374899
"1671 Fort Dupont Street Southeast, Washington, DC",38.865087100000004,-76.94606540000001
"777 7th Street Northwest, Washington, DC",38.899431299999996,-77.02156690000001
"3102 Banneker Drive Northeast, Washington, DC",38.9242498,-76.9616058
"23 Q Street Northeast, Washington, DC",38.9109195,-77.0078542
"2206 1st Street Northwest, Washington, DC",38.919478399999996,-77.0124208
"1727 Massachusetts Avenue Northwest, Washington, DC",38.90883529999999,-77.0398501
"2500 Q Street Northwest, Washington, DC",38.9103711,-77.0520839
"5551 Illinois Avenue Northwest, Washington, DC",38.957107,-77.027615
"317 10th Street Northeast, Washington, DC",38.894102000000004,-76.99243249999998
"1318 35th Street Northwest, Washington, DC",38.9072264,-77.06928559999999
"1303 Clifton Street Northwest, Washington, DC",38.9226669,-77.030041
"1442 Corcoran Street Northwest, Washington, DC",38.9116839,-77.03366799999998
"607 Browns Court Southeast, Washington, DC",38.888037700000005,-76.9976407
"2920 Georgia Avenue Northwest, Washington, DC",38.927693,-77.0234229
"712 Marietta Place Northwest, Washington, DC",38.95908470000001,-77.0230266
"1465 Harvard Street Northwest, Washington, DC",38.926659,-77.034746
"1879 Channing Street Northeast, Washington, DC",38.921898999999996,-76.97681899999998
"3609 38th Street Northwest, Washington, DC",38.938082,-77.07588299999998
"509 M Street Northeast, Washington, DC",38.9054193,-76.99902309999999
"1300 Kenyon Street Northwest, Washington, DC",38.929439,-77.02988669999998
"1715 15th Street Northwest, Washington, DC",38.913259499999995,-77.03407
"4301 Massachusetts Avenue Northwest, Washington, DC",38.9366831,-77.0831187
"2108 10th Street Northwest, Washington, DC",38.9185723,-77.02627679999998
"1830 11th St NW, Washington, DC",38.915192100000006,-77.0272471
"915 12th Street Northeast, Washington, DC",38.901906,-76.9901046
"5405 5th Street Northwest, Washington, DC",38.955626,-77.01964140000001
"4453 Greenwich Parkway Northwest, Washington, DC",38.9119271,-77.0836647
"3601 Wisconsin Avenue Northwest, Washington, DC",38.9376794,-77.07363889999998
"5253 43rd Street Northwest, Washington, DC",38.9588956,-77.083506
"1726 U Street Northwest, Washington, DC",38.9168651,-77.03919599999998
"5410 Connecticut Avenue Northwest, Washington, DC",38.9618075,-77.0743918
"1916 17th Street Northwest, Washington, DC",38.9161406,-77.03867209999999
"1820 T Street Northwest, Washington, DC",38.9155523,-77.04253100000001
"2120 Vermont Avenue Northwest, Washington, DC",38.9187901,-77.02491599999998
"3306 9th Street Northeast, Washington, DC",38.930755100000006,-76.9936926
"2300 18th Street Northwest, Washington, DC",38.919991700000004,-77.04200909999999
"2630 Adams Mill Road Northwest, Washington, DC",38.92377570000001,-77.0449776
"2426 Ontario Road Northwest, Washington, DC",38.921451899999994,-77.0402331
"1312 Massachusetts Avenue Northwest, Washington, DC",38.904831200000004,-77.03035609999998
"424 11th Street Northeast, Washington, DC",38.8954931,-76.99177999999998
"1211 13th Street Northwest, Washington, DC",38.9062866,-77.02932440000001
"1327 Trinidad Avenue Northeast, Washington, DC",38.903963,-76.98540799999998
"1954 Columbia Road Northwest, Washington, DC",38.91813,-77.04504
"4621 9th Street Northwest, Washington, DC",38.946856200000006,-77.02508470000001
"1350 Maryland Avenue Northeast, Washington, DC",38.899499,-76.985945
"1300 N Street Northwest, Washington, DC",38.9069995,-77.02995419999998
"437 New York Avenue Northwest, Washington, DC",38.9047329,-77.0173188
"2815 Cortland Place Northwest, Washington, DC",38.930115,-77.0579053
"1825 T Street Northwest, Washington, DC",38.915747100000004,-77.042762
"1908 T Street Northwest, Washington, DC",38.915417299999994,-77.04388639999998
"4314 12th Street Northeast, Washington, DC",38.942547999999995,-76.99051999999999
"1323 Clifton Street Northwest, Washington, DC",38.922919,-77.0309438
"1220 Eton Ct NW, Washington, DC",38.905797899999996,-77.065407
"1420 N Street Northwest, Washington, DC",38.9070896,-77.0329897
"3333 N Street Northwest, Washington, DC",38.90709469999999,-77.06739689999998
"1800 R Street Northwest, Washington, DC",38.912378499999996,-77.042099
"522 21st Street Northwest, Washington, DC",38.8967925,-77.0469566
"617 Jefferson Street NW, Washington, DC",38.9555919,-77.02138459999998
"4120 14th Street Northwest, Washington, DC",38.9416833,-77.033013
"1424 Staples Street Northeast, Washington, DC",38.904424600000006,-76.9838152
"3472 Summit Court Northeast, Washington, DC",38.9277287,-76.95899909999999
"1910 Kalorama Place Northwest, Washington, DC",38.9209903,-77.04638
"1838 4th Street Northwest, Washington, DC",38.9154704,-77.01761690000001
"1765 U Street Northwest, Washington, DC",38.9171732,-77.04058119999998
"900 11th Street Southeast, Washington, DC",38.878972499999996,-76.9911705
"1113 Trenton Place Southeast, Washington, DC",38.8401685,-76.99084719999998
"409 Upshur Street Northwest, Washington, DC",38.9422144,-77.01767209999998
"800 4th Street Southwest, Washington, DC",38.880266,-77.0170883
"3235 15th Place Southeast, Washington, DC",38.8486324,-76.98278020000001
"1537 Gales Street NE, Washington, DC",38.8982916,-76.98204249999998
"1859 Monroe Street Northwest, Washington, DC",38.933499299999994,-77.04315600000001
"1409 G Street Northeast, Washington, DC",38.89864590000001,-76.9850527
"1440 Columbia Road Northwest, Washington, DC",38.927127899999995,-77.03401699999998
"2143 Suitland Ter SE, Washington, DC",38.8620662,-76.94961020000001
"2407 21st Place Northeast, Washington, DC",38.9218768,-76.97494979999998
"525 Water Street SW, Washington, DC",38.876059000000005,-77.02023989999998
"1219 Pleasant Street Southeast, Washington, DC",38.8636754,-76.98949640000001
"1906 R Street Northwest, Washington, DC",38.912328,-77.044016
"4419 3rd Street Northwest, Washington, DC",38.944909,-77.01527759999998
"3804 Rodman St NW, Washington, DC",38.939289,-77.0753457
"1841 R Street Northwest, Washington, DC",38.91278870000001,-77.042965
"1330 New Hampshire Avenue Northwest, Washington, DC",38.9083086,-77.0451575
"200 C Street Southeast, Washington, DC",38.8862533,-77.00313899999998
"4702 Jay Street Northeast, Washington, DC",38.901671,-76.93538530000001
"1458 Columbia Road Northwest, Washington, DC",38.927240000000005,-77.0342734
"2613 Martin Luther King Jr Avenue Southeast, Washington, DC",38.8588049,-76.99544859999999
"3217 Wisconsin Avenue Northwest, Washington, DC",38.9331878,-77.0721635
"2909 Chancellor's Way Northeast, Washington, DC",38.9271855,-76.99810740000001
"213 12th Street Northeast, Washington, DC",38.892384,-76.9899238
"4118 Grant Street Northeast, Washington, DC",38.8985826,-76.9435333
"625 Buchanan Street Northeast, Washington, DC",38.9460606,-76.9973145
"227 63rd Street Northeast, Washington, DC",38.8926737,-76.91079549999998
"1816 T Street Northwest, Washington, DC",38.9155595,-77.0423959
"641 Lamont Street Northwest, Washington, DC",38.931441799999995,-77.02283229999998
"1159 3rd Street NE, Washington, DC",38.9050849,-77.001847
"2617 Martin Luther King Jr Avenue Southeast, Washington, DC",38.858895800000006,-76.9959016
"2425 14th Street Northwest, Washington, DC",38.921477100000004,-77.0316387
"1250 Girard Street Northwest, Washington, DC",38.925529,-77.02941
"3870 Rodman Street Northwest, Washington, DC",38.938790000000004,-77.0768176
"521 Kennedy Street Northwest, Washington, DC",38.956586,-77.0207058
"1913 9th Street Northwest, Washington, DC",38.9161534,-77.02376890000001
"35 Todd Place Northeast, Washington, DC",38.91612500000001,-77.0077642
"83 Danbury Street Southwest, Washington, DC",38.827944,-77.00973499999998
"4317 15th Street Northwest, Washington, DC",38.9435621,-77.034205
"2417 Shannon Place Southeast, Washington, DC",38.863542100000004,-76.9936446
"7213 Georgia Avenue Northwest, Washington, DC",38.9777551,-77.0262825
"3465 14th Street Northwest, Washington, DC",38.9340998,-77.0324507
"1312 Park Road Northwest, Washington, DC",38.930898,-77.03028990000001
"3235 M St SE, Washington, DC",38.875460700000005,-76.9594226
"5624 13th Street Northwest, Washington, DC",38.9580896,-77.029943
"425 L Street Northwest, Washington, DC",38.9040838,-77.0173339
"1311 Pennsylvania Avenue Southeast, Washington, DC",38.881000799999995,-76.9877765
"611 Florida Avenue Northwest, Washington, DC",38.91584,-77.0205411
